X,Y,OBJECTID,stop_id,stop_code,stop_name,line_color,stop_desc,platform_code,platform_name,stop_lat,stop_lon,zone_id,stop_address,stop_url,level_id,location_type,parent_station,wheelchair_boarding,municipality,on_street,at_street,vehicle_type,Sidewalk_Width__ft_,Accessibility_Score,Sidewalk_Condition,Sidewalk_Material,Current_Shelter,Routes,Municipality_1,Neighborhood,created_user,created_date,last_edited_user,last_edited_date
-71.142483,42.395428,618611,place-alfcl,,Alewife,red,,,,42.395428,-71.142483,,"Alewife Brook Pkwy and Cambridge Park Dr, Cambridge, MA 02140",https://www.mbta.com/stops/place-alfcl,,1,,1,Cambridge,,,,,,,,,,,,DOT_ADMIN,2021/12/07 11:33:56+00,DOT_ADMIN,2021/12/07 11:33:56+00
-71.137955,42.348701,618622,place-alsgr,,Allston Street,green,,,,42.348701,-71.137955,,"Allston St and Commonwealth Ave, Boston, MA 02134",https://www.mbta.com/stops/place-alsgr,,1,,2,Boston,,,,,,,,,,,,DOT_ADMIN,2021/12/07 11:33:56+00,DOT_ADMIN,2021/12/07 11:33:56+00
-71.114748,42.350992,618625,place-amory,,Amory Street,green,,,,42.350992,-71.114748,,"Commonwealth Ave and Amory St, Boston, MA 02215",https://www.mbta.com/stops/place-amory,,1,,1,Boston,,,,,,,,,,,,DOT_ADMIN,2021/12/07 11:33:56+00,DOT_ADMIN,2021/12/07 11:33:56+00
-71.057655,42.330154,618632,place-andrw,,Andrew,red,,,,42.330154,-71.057655,,"Dorchester Ave and Southhampton St, South Boston, MA 02127",https://www.mbta.com/stops/place-andrw,,1,,1,Boston,,,,,,,,,,,,DOT_ADMIN,2021/12/07 11:33:56+00,DOT_ADMIN,2021/12/07 11:33:56+00
-71.030395,42.374262,618640,place-aport,,Airport,blue,,,,42.374262,-71.030395,,"Transportation Way and Service Rd, Boston, MA 02128",https://www.mbta.com/stops/place-aport,,1,,1,Boston,,,,,,,,,,,,DOT_ADMIN,2021/12/07 11:33:56+00,DOT_ADMIN,2021/12/07 11:33:56+00
-71.051652,42.359784,618647,place-aqucl,,Aquarium,blue,,,,42.359784,-71.051652,,"Atlantic Ave and State St, Boston, MA 02120",https://www.mbta.com/stops/place-aqucl,,1,,1,Boston,,,,,,,,,,,,DOT_ADMIN,2021/12/07 11:33:56+00,DOT_ADMIN,2021/12/07 11:33:56+00
-71.070893,42.351902,618654,place-armnl,,Arlington,green,,,,42.351902,-71.070893,,"Arlington St and Boylston St, Boston, MA 02116",https://www.mbta.com/stops/place-armnl,,1,,1,Boston,,,,,,,,,,,,DOT_ADMIN,2021/12/07 11:33:56+00,DOT_ADMIN,2021/12/07 11:33:56+00
-71.063777,42.28452,618661,place-asmnl,,Ashmont,red,,,,42.28452,-71.063777,,"Dorchester Ave and Ashmont St, Boston, MA 02124",https://www.mbta.com/stops/place-asmnl,,1,,1,Boston,,,,,,,,,,,,DOT_ADMIN,2021/12/07 11:33:56+00,DOT_ADMIN,2021/12/07 11:33:56+00
-71.077257,42.392811,618671,place-astao,,Assembly,orange,,,,42.392811,-71.077257,,"499 Foley St, Somerville, MA 02145",https://www.mbta.com/stops/place-astao,,1,,1,Somerville,,,,,,,,,,,,DOT_ADMIN,2021/12/07 11:33:56+00,DOT_ADMIN,2021/12/07 11:33:56+00
-71.119924,42.351616,618676,place-babck,,Babcock Street,green,,,,42.351616,-71.119924,,"Commonwealth Ave and Babcock St, Boston, MA 02215",https://www.mbta.com/stops/place-babck,,1,,1,Boston,,,,,,,,,,,,DOT_ADMIN,2021/12/07 11:33:56+00,DOT_ADMIN,2021/12/07 11:33:56+00
-71.075727,42.34735,618683,place-bbsta,,Back Bay,orange,,,,42.34735,-71.075727,CR-zone-1A,"145 Dartmouth St Boston, MA 02116",https://www.mbta.com/stops/place-bbsta,,1,,1,Boston,,,,,,,,,,,,DOT_ADMIN,2021/12/07 11:33:56+00,DOT_ADMIN,2021/12/07 11:33:56+00
-71.111313,42.330139,618704,place-bckhl,,Back of the Hill,green,,,,42.330139,-71.111313,,"100 S Huntington Ave, Boston, MA 02130",https://www.mbta.com/stops/place-bckhl,,1,,2,Boston,,,,,,,,,,,,DOT_ADMIN,2021/12/07 11:33:56+00,DOT_ADMIN,2021/12/07 11:33:56+00
-71.140455,42.335765,618707,place-bcnfd,,Beaconsfield,green,,,,42.335765,-71.140455,,"124 Beaconsfield Rd, Brookline, MA 02445",https://www.mbta.com/stops/place-bcnfd,,1,,2,Brookline,,,,,,,,,,,,DOT_ADMIN,2021/12/07 11:33:56+00,DOT_ADMIN,2021/12/07 11:33:56+00
-71.13533,42.339394,618714,place-bcnwa,,Washington Square,green,,,,42.339394,-71.13533,,"Beacon St and Washington St, Brookline, MA",https://www.mbta.com/stops/place-bcnwa,,1,,1,Brookline,,,,,,,,,,,,DOT_ADMIN,2021/12/07 11:33:56+00,DOT_ADMIN,2021/12/07 11:33:56+00
-71.100258,42.349293,618723,place-bland,,Blandford Street,green,,,,42.349293,-71.100258,,"Commonwealth Ave and Blandford Mall, Boston, MA 02215",https://www.mbta.com/stops/place-bland,,1,,2,Boston,,,,,,,,,,,,DOT_ADMIN,2021/12/07 11:33:56+00,DOT_ADMIN,2021/12/07 11:33:56+00
-70.992319,42.397542,618726,place-bmmnl,,Beachmont,blue,,,,42.397542,-70.992319,,"630 Winthrop Ave, Revere, MA 02151",https://www.mbta.com/stops/place-bmmnl,,1,,1,Revere,,,,,,,,,,,,DOT_ADMIN,2021/12/07 11:33:56+00,DOT_ADMIN,2021/12/07 11:33:56+00
-71.129082,42.340023,618730,place-bndhl,,Brandon Hall,green,,,,42.340023,-71.129082,,"1481 Beacon Street, Brookline, MA",https://www.mbta.com/stops/place-bndhl,,1,,2,Brookline,,,,,,,,,,,,DOT_ADMIN,2021/12/07 11:33:56+00,DOT_ADMIN,2021/12/07 11:33:56+00
-71.062037,42.361365,618733,place-bomnl,,Bowdoin,blue,,,,42.361365,-71.062037,,"Cambridge St and New Chardon St/Bowdoin St, Boston, MA 02114",https://www.mbta.com/stops/place-bomnl,,1,,2,Boston,,,,,,,,,,,,DOT_ADMIN,2021/12/07 11:33:56+00,DOT_ADMIN,2021/12/07 11:33:56+00
-71.06459,42.35302,618740,place-boyls,,Boylston,green,,,,42.35302,-71.06459,,"Boylston St and Tremont St, Boston, MA",https://www.mbta.com/stops/place-boyls,,1,,2,Boston,,,,,,,,,,,,DOT_ADMIN,2021/12/07 11:33:56+00,DOT_ADMIN,2021/12/07 11:33:56+00
-71.056967,42.342622,618745,place-brdwy,,Broadway,red,,,,42.342622,-71.056967,,"Dorchester Ave and Broadway, Boston, MA",https://www.mbta.com/stops/place-brdwy,,1,,1,Boston,,,,,,,,,,,,DOT_ADMIN,2021/12/07 11:33:56+00,DOT_ADMIN,2021/12/07 11:33:56+00
-71.125031,42.351967,618750,place-brico,,Packards Corner,green,,,,42.351967,-71.125031,,"Commonwealth Ave and Brighton Ave, Boston, MA 02215",https://www.mbta.com/stops/place-brico,,1,,2,Boston,,,,,,,,,,,,DOT_ADMIN,2021/12/07 11:33:56+00,DOT_ADMIN,2021/12/07 11:33:56+00
-71.126683,42.331316,618753,place-brkhl,,Brookline Hills,green,,,,42.331316,-71.126683,,"Tappan St and Cypress St, Brookline, MA 02445",https://www.mbta.com/stops/place-brkhl,,1,,1,Brookline,,,,,,,,,,,,DOT_ADMIN,2021/12/07 11:33:56+00,DOT_ADMIN,2021/12/07 11:33:56+00
-71.104609,42.334229,618758,place-brmnl,,Brigham Circle,green,,,,42.334229,-71.104609,,"Huntington Ave and Francis St, Boston, MA",https://www.mbta.com/stops/place-brmnl,,1,,1,Boston,,,,,,,,,,,,DOT_ADMIN,2021/12/07 11:33:56+00,DOT_ADMIN,2021/12/07 11:33:56+00
-71.001138,42.207854,618761,place-brntn,,Braintree,red,,,,42.207854,-71.001138,CR-zone-2,"197 Ivory St, Braintree, MA 02184",https://www.mbta.com/stops/place-brntn,,1,,1,Braintree,,,,,,,,,,,,DOT_ADMIN,2021/12/07 11:33:56+00,DOT_ADMIN,2021/12/07 11:33:56+00
-71.106865,42.350082,618771,place-bucen,,Boston University Central,green,,,,42.350082,-71.106865,,"Commonwealth Ave and Marsh Chapel, Boston, MA 02215",https://www.mbta.com/stops/place-bucen,,1,,1,Boston,,,,,,,,,,,,DOT_ADMIN,2021/12/07 11:33:56+00,DOT_ADMIN,2021/12/07 11:33:56+00
-71.103889,42.349735,618774,place-buest,,Boston University East,green,,,,42.349735,-71.103889,,"Commonwealth Ave and Granby St, Boston, MA 02215",https://www.mbta.com/stops/place-buest,,1,,1,Boston,,,,,,,,,,,,DOT_ADMIN,2021/12/07 11:33:56+00,DOT_ADMIN,2021/12/07 11:33:56+00
-71.062519,42.272429,618777,place-butlr,,Butler,red,,,,42.272429,-71.062519,,"Butler St and Branchfield St, Dorchester, MA 02124",https://www.mbta.com/stops/place-butlr,,1,,1,Boston,,,,,,,,,,,,DOT_ADMIN,2021/12/07 11:33:56+00,DOT_ADMIN,2021/12/07 11:33:56+00
-71.116857,42.332608,618782,place-bvmnl,,Brookline Village,green,,,,42.332608,-71.116857,,"31 Station Street, Brookline, MA 02445",https://www.mbta.com/stops/place-bvmnl,,1,,1,Brookline,,,,,,,,,,,,DOT_ADMIN,2021/12/07 11:33:56+00,DOT_ADMIN,2021/12/07 11:33:56+00
-71.087338,42.267563,618789,place-capst,,Capen Street,red,,,,42.267563,-71.087338,,"50 Capen St, Milton, MA 02186",https://www.mbta.com/stops/place-capst,,1,,1,Milton,,,,,,,,,,,,DOT_ADMIN,2021/12/07 11:33:56+00,DOT_ADMIN,2021/12/07 11:33:56+00
-71.069533,42.373622,618794,place-ccmnl,,Community College,orange,,,,42.373622,-71.069533,,"Austin St and Rutherford Ave, Charlestown, MA",https://www.mbta.com/stops/place-ccmnl,,1,,1,Boston,,,,,,,,,,,,DOT_ADMIN,2021/12/07 11:33:56+00,DOT_ADMIN,2021/12/07 11:33:56+00
-71.060394,42.279629,618798,place-cedgr,,Cedar Grove,red,,,,42.279629,-71.060394,,"Fellsway St and Milton St, Dorchester, MA 02124",https://www.mbta.com/stops/place-cedgr,,1,,1,Boston,,,,,,,,,,,,DOT_ADMIN,2021/12/07 11:33:56+00,DOT_ADMIN,2021/12/07 11:33:56+00
-71.073444,42.270027,618803,place-cenav,,Central Avenue,red,,,,42.270027,-71.073444,,"23 Central Ave, Milton, MA 02186",https://www.mbta.com/stops/place-cenav,,1,,1,Milton,,,,,,,,,,,,DOT_ADMIN,2021/12/07 11:33:56+00,DOT_ADMIN,2021/12/07 11:33:56+00
-71.164699,42.326753,618820,place-chhil,,Chestnut Hill,green,,,,42.326753,-71.164699,,"Hammond St and Chestnut Hill Rd, Newton, MA 02467",https://www.mbta.com/stops/place-chhil,,1,,2,Newton,,,,,,,,,,,,DOT_ADMIN,2021/12/07 11:33:56+00,DOT_ADMIN,2021/12/07 11:33:56+00
-71.15316,42.338169,618827,place-chill,,Chestnut Hill Avenue,green,,,,42.338169,-71.15316,,"Commonwealth Ave and Chestnut Hill Ave, Boston, MA",https://www.mbta.com/stops/place-chill,,1,,2,Boston,,,,,,,,,,,,DOT_ADMIN,2021/12/07 11:33:56+00,DOT_ADMIN,2021/12/07 11:33:56+00
-71.070628,42.361166,618830,place-chmnl,,Charles/MGH,red,,,,42.361166,-71.070628,,"Cambridge St and Charles St, Boston, MA",https://www.mbta.com/stops/place-chmnl,,1,,1,Boston,,,,,,,,,,,,DOT_ADMIN,2021/12/07 11:33:56+00,DOT_ADMIN,2021/12/07 11:33:56+00
-71.062752,42.352547,618834,place-chncl,,Chinatown,orange,,,,42.352547,-71.062752,,"Washington Street and Boylston Street, Boston, MA",https://www.mbta.com/stops/place-chncl,,1,,1,Boston,,,,,,,,,,,,DOT_ADMIN,2021/12/07 11:33:56+00,DOT_ADMIN,2021/12/07 11:33:56+00
-71.150711,42.340805,618841,place-chswk,,Chiswick Road,green,,,,42.340805,-71.150711,,"Commonwealth Ave and Chiswick Rd, Boston, MA",https://www.mbta.com/stops/place-chswk,,1,,2,Boston,,,,,,,,,,,,DOT_ADMIN,2021/12/07 11:33:56+00,DOT_ADMIN,2021/12/07 11:33:56+00
-71.149326,42.336142,618844,place-clmnl,,Cleveland Circle,green,,,,42.336142,-71.149326,,"Beacon St and Chestnut Hill Ave, Brighton, MA",https://www.mbta.com/stops/place-clmnl,,1,,1,Boston,,,,,,,,,,,,DOT_ADMIN,2021/12/07 11:33:56+00,DOT_ADMIN,2021/12/07 11:33:56+00
-71.103802,42.365486,618847,place-cntsq,,Central,red,,,,42.365486,-71.103802,,"Massachusetts Avenue and Prospect Street, Cambridge, MA 02139",https://www.mbta.com/stops/place-cntsq,,1,,1,Cambridge,,,,,,,,,,,,DOT_ADMIN,2021/12/07 11:33:56+00,DOT_ADMIN,2021/12/07 11:33:56+00
-71.077447,42.349974,618856,place-coecl,,Copley,green,,,,42.349974,-71.077447,,"Boylston St and Dartmouth St, Boston, MA",https://www.mbta.com/stops/place-coecl,,1,,1,Boston,,,,,,,,,,,,DOT_ADMIN,2021/12/07 11:33:56+00,DOT_ADMIN,2021/12/07 11:33:56+00
,,,,,,,,,,,,,,,,,,,,,,,,,,,,,,,,,,
-71.121263,42.342116,618865,place-cool,,Coolidge Corner,green,,,,42.342116,-71.121263,,"Beacon St and Harvard St, Brookline, MA",https://www.mbta.com/stops/place-cool,,1,,1,Brookline,,,,,,,,,,,,DOT_ADMIN,2021/12/07 11:33:56+00,DOT_ADMIN,2021/12/07 11:33:56+00
-71.121815,42.39674,618873,place-davis,,Davis,red,,,,42.39674,-71.121815,,"College Ave and Elm St, Somerville, MA",https://www.mbta.com/stops/place-davis,,1,,1,Somerville,,,,,,,,,,,,DOT_ADMIN,2021/12/07 11:33:56+00,DOT_ADMIN,2021/12/07 11:33:56+00
-71.141853,42.337807,618879,place-denrd,,Dean Road,green,,,,42.337807,-71.141853,,"Beacon St and Dean Rd, Brookline, MA",https://www.mbta.com/stops/place-denrd,,1,,2,Brookline,,,,,,,,,,,,DOT_ADMIN,2021/12/07 11:33:56+00,DOT_ADMIN,2021/12/07 11:33:56+00
-71.060225,42.355518,618882,place-dwnxg,,Downtown Crossing,orange,,,,42.355518,-71.060225,,"Washington St and Summer St, Boston, MA",https://www.mbta.com/stops/place-dwnxg,,1,,1,Boston,,,,,,,,,,,,DOT_ADMIN,2021/12/07 11:33:56+00,DOT_ADMIN,2021/12/07 11:33:56+00
-71.216684,42.319045,618897,place-eliot,,Eliot,green,,,,42.319045,-71.216684,,"248 Lincoln St, Newton, MA 02461",https://www.mbta.com/stops/place-eliot,,1,,2,Newton,,,,,,,,,,,,DOT_ADMIN,2021/12/07 11:33:56+00,DOT_ADMIN,2021/12/07 11:33:56+00
-71.14566,42.336971,618905,place-engav,,Englewood Avenue,green,,,,42.336971,-71.14566,,"Beacon St and Englewood Ave, Brookline, MA",https://www.mbta.com/stops/place-engav,,1,,2,Brookline,,,,,,,,,,,,DOT_ADMIN,2021/12/07 11:33:56+00,DOT_ADMIN,2021/12/07 11:33:56+00
-71.131073,42.339725,618911,place-fbkst,,Fairbanks Street,green,,,,42.339725,-71.131073,,"Beacon St and Fairbanks Ave, Brookline, MA",https://www.mbta.com/stops/place-fbkst,,1,,2,Brookline,,,,,,,,,,,,DOT_ADMIN,2021/12/07 11:33:56+00,DOT_ADMIN,2021/12/07 11:33:56+00
-71.105728,42.333706,618914,place-fenwd,,Fenwood Road,green,,,,42.333706,-71.105728,,"Huntington Ave and Fenwood Rd, Boston, MA",https://www.mbta.com/stops/place-fenwd,,1,,2,Boston,,,,,,,,,,,,DOT_ADMIN,2021/12/07 11:33:56+00,DOT_ADMIN,2021/12/07 11:33:56+00
-71.104213,42.345403,618917,place-fenwy,,Fenway,green,,,,42.345403,-71.104213,,"411 Park Dr, Boston, MA 02215",https://www.mbta.com/stops/place-fenwy,,1,,1,Boston,,,,,,,,,,,,DOT_ADMIN,2021/12/07 11:33:56+00,DOT_ADMIN,2021/12/07 11:33:56+00
-71.061667,42.300093,618922,place-fldcr,,Fields Corner,red,,,,42.300093,-71.061667,,"50 Freeman St, Dorchester, MA 02122",https://www.mbta.com/stops/place-fldcr,,1,,1,Boston,,,,,,,,,,,,DOT_ADMIN,2021/12/07 11:33:56+00,DOT_ADMIN,2021/12/07 11:33:56+00
-71.113686,42.300523,618928,place-forhl,,Forest Hills,orange,,,,42.300523,-71.113686,CR-zone-1A,"Washington St and Hyde Park Ave, Jamaica Plain, MA 02130",https://www.mbta.com/stops/place-forhl,,1,,1,Boston,,,,,,,,,,,,DOT_ADMIN,2021/12/07 11:33:56+00,DOT_ADMIN,2021/12/07 11:33:56+00
-71.059215,42.359705,618941,place-gover,,Government Center,blue,,,,42.359705,-71.059215,,"Cambridge St and Court St, Boston, MA",https://www.mbta.com/stops/place-gover,,1,,1,Boston,,,,,,,,,,,,DOT_ADMIN,2021/12/07 11:33:56+00,DOT_ADMIN,2021/12/07 11:33:56+00
-71.134949,42.348545,618948,place-grigg,,Griggs Street,green,,,,42.348545,-71.134949,,"Commonwealth Ave and Griggs St, Boston, MA",https://www.mbta.com/stops/place-grigg,,1,,2,Boston,,,,,,,,,,,,DOT_ADMIN,2021/12/07 11:33:56+00,DOT_ADMIN,2021/12/07 11:33:56+00
-71.107414,42.310525,618951,place-grnst,,Green Street,orange,,,,42.310525,-71.107414,,"150 Green St, Jamaica Plain, MA",https://www.mbta.com/stops/place-grnst,,1,,1,Boston,,,,,,,,,,,,DOT_ADMIN,2021/12/07 11:33:56+00,DOT_ADMIN,2021/12/07 11:33:56+00
-71.05829,42.363021,618955,place-haecl,,Haymarket,orange,,,,42.363021,-71.05829,,"136 Blackstone St, Boston, MA 02109",https://www.mbta.com/stops/place-haecl,,1,,1,Boston,,,,,,,,,,,,DOT_ADMIN,2021/12/07 11:33:56+00,DOT_ADMIN,2021/12/07 11:33:56+00
-71.118956,42.373362,618962,place-harsq,,Harvard,red,,,,42.373362,-71.118956,,"1400 Massachusetts Ave, Cambridge, MA",https://www.mbta.com/stops/place-harsq,,1,,1,Cambridge,,,,,,,,,,,,DOT_ADMIN,2021/12/07 11:33:56+00,DOT_ADMIN,2021/12/07 11:33:56+00
-71.131355,42.350243,618971,place-harvd,,Harvard Avenue,green,,,,42.350243,-71.131355,,"Commonwealth Ave and Harvard Ave, Boston, MA",https://www.mbta.com/stops/place-harvd,,1,,1,Boston,,,,,,,,,,,,DOT_ADMIN,2021/12/07 11:33:56+00,DOT_ADMIN,2021/12/07 11:33:56+00
-71.110252,42.328316,618974,place-hsmnl,,Heath Street,green,,,,42.328316,-71.110252,,"Heath St and South Huntington Ave, Boston, MA",https://www.mbta.com/stops/place-hsmnl,,1,,1,Boston,,,,,,,,,,,,DOT_ADMIN,2021/12/07 11:33:56+00,DOT_ADMIN,2021/12/07 11:33:56+00
-71.111145,42.344906,618976,place-hwsst,,Hawes Street,green,,,,42.344906,-71.111145,,"Beacon St and Hawes St, Brookline, MA",https://www.mbta.com/stops/place-hwsst,,1,,2,Brookline,,,,,,,,,,,,DOT_ADMIN,2021/12/07 11:33:56+00,DOT_ADMIN,2021/12/07 11:33:56+00
-71.087903,42.347888,618979,place-hymnl,,Hynes Convention Center,green,,,,42.347888,-71.087903,,"100 Massachusetts Ave, Boston, MA",https://www.mbta.com/stops/place-hymnl,,1,,2,Boston,,,,,,,,,,,,DOT_ADMIN,2021/12/07 11:33:56+00,DOT_ADMIN,2021/12/07 11:33:56+00
-71.099592,42.323132,618984,place-jaksn,,Jackson Square,orange,,,,42.323132,-71.099592,,"1500 Columbus Ave, Jamaica Plain, MA",https://www.mbta.com/stops/place-jaksn,,1,,1,Boston,,,,,,,,,,,,DOT_ADMIN,2021/12/07 11:33:56+00,DOT_ADMIN,2021/12/07 11:33:56+00
-71.052391,42.320685,618989,place-jfk,,JFK/UMass,red,,,,42.320685,-71.052391,CR-zone-1A,"599 Old Colony Ave Boston, MA 02127-3805",https://www.mbta.com/stops/place-jfk,,1,,1,Boston,,,,,,,,,,,,DOT_ADMIN,2021/12/07 11:33:56+00,DOT_ADMIN,2021/12/07 11:33:56+00
-71.095169,42.348949,619001,place-kencl,,Kenmore,green,,,,42.348949,-71.095169,,"Commonwealth Ave and Kenmore St, Boston, MA 02215",https://www.mbta.com/stops/place-kencl,,1,,1,Boston,,,,,,,,,,,,DOT_ADMIN,2021/12/07 11:33:56+00,DOT_ADMIN,2021/12/07 11:33:56+00
-71.086176,42.362491,619010,place-knncl,,Kendall/MIT,red,,,,42.362491,-71.086176,,"300 Main St, Cambridge, MA 02142",https://www.mbta.com/stops/place-knncl,,1,,1,Cambridge,,,,,,,,,,,,DOT_ADMIN,2021/12/07 11:33:56+00,DOT_ADMIN,2021/12/07 11:33:56+00
-71.114197,42.344074,619017,place-kntst,,Kent Street,green,,,,42.344074,-71.114197,,"Beacon St and Powell St, Brookline, MA",https://www.mbta.com/stops/place-kntst,,1,,2,Brookline,,,,,,,,,,,,DOT_ADMIN,2021/12/07 11:33:56+00,DOT_ADMIN,2021/12/07 11:33:56+00
-71.166769,42.340081,619020,place-lake,,Boston College,green,,,,42.340081,-71.166769,,"Commonwealth Ave and Lake St, Boston, MA 02135",https://www.mbta.com/stops/place-lake,,1,,1,Boston,,,,,,,,,,,,DOT_ADMIN,2021/12/07 11:33:56+00,DOT_ADMIN,2021/12/07 11:33:56+00
-71.076536,42.370772,619023,place-lech,,Lechmere,green,,,,42.370772,-71.076536,,"Cambridge St and O'Brien Hwy, Cambridge, MA 02141",https://www.mbta.com/stops/place-lech,,1,,1,Cambridge,,,,,,,,,,,,DOT_ADMIN,2021/12/07 11:33:56+00,DOT_ADMIN,2021/12/07 11:33:56+00
-71.100052,42.33596,619030,place-lngmd,,Longwood Medical Area,green,,,,42.33596,-71.100052,,"Huntington Ave and Longwood Ave, Boston, MA 02115",https://www.mbta.com/stops/place-lngmd,,1,,1,Boston,,,,,,,,,,,,DOT_ADMIN,2021/12/07 11:33:56+00,DOT_ADMIN,2021/12/07 11:33:56+00
-71.109956,42.341702,619033,place-longw,,Longwood,green,,,,42.341702,-71.109956,,"30 Chapel St, Brookline, MA 02446",https://www.mbta.com/stops/place-longw,,1,,1,Brookline,,,,,,,,,,,,DOT_ADMIN,2021/12/07 11:33:56+00,DOT_ADMIN,2021/12/07 11:33:56+00
-71.083423,42.341512,619040,place-masta,,Massachusetts Avenue,orange,,,,42.341512,-71.083423,,"393 Massachusetts Ave, Boston, MA 02118",https://www.mbta.com/stops/place-masta,,1,,1,Boston,,,,,,,,,,,,DOT_ADMIN,2021/12/07 11:33:56+00,DOT_ADMIN,2021/12/07 11:33:56+00
-71.092486,42.26762,619047,place-matt,,Mattapan,red,,,,42.26762,-71.092486,,"500 River St, Boston, MA 02126",https://www.mbta.com/stops/place-matt,,1,,1,Boston,,,,,,,,,,,,DOT_ADMIN,2021/12/07 11:33:56+00,DOT_ADMIN,2021/12/07 11:33:56+00
-71.095512,42.337711,619056,place-mfa,,Museum of Fine Arts,green,,,,42.337711,-71.095512,,"Huntington Ave and Ruggles St, Boston, MA",https://www.mbta.com/stops/place-mfa,,1,,1,Boston,,,,,,,,,,,,DOT_ADMIN,2021/12/07 11:33:56+00,DOT_ADMIN,2021/12/07 11:33:56+00
-71.067266,42.270349,619059,place-miltt,,Milton,red,,,,42.270349,-71.067266,,"1 Adams St, Milton, MA 02186",https://www.mbta.com/stops/place-miltt,,1,,1,Milton,,,,,,,,,,,,DOT_ADMIN,2021/12/07 11:33:56+00,DOT_ADMIN,2021/12/07 11:33:56+00
-71.109756,42.333195,619065,place-mispk,,Mission Park,green,,,,42.333195,-71.109756,,"Huntington Ave and Mission Park Dr, Boston, MA 02115",https://www.mbta.com/stops/place-mispk,,1,,2,Boston,,,,,,,,,,,,DOT_ADMIN,2021/12/07 11:33:56+00,DOT_ADMIN,2021/12/07 11:33:56+00
-71.07411,42.426632,619068,place-mlmnl,,Malden Center,orange,,,,42.426632,-71.07411,CR-zone-1A,"Commercial St and Pleasant St, Malden, MA 02148",https://www.mbta.com/stops/place-mlmnl,,1,,1,Malden,,,,,,,,,,,,DOT_ADMIN,2021/12/07 11:33:56+00,DOT_ADMIN,2021/12/07 11:33:56+00
-71.03953,42.369119,619078,place-mvbcl,,Maverick,blue,,,,42.369119,-71.03953,,"Sumner St and Maverick Sq, East Boston, MA",https://www.mbta.com/stops/place-mvbcl,,1,,1,Boston,,,,,,,,,,,,DOT_ADMIN,2021/12/07 11:33:56+00,DOT_ADMIN,2021/12/07 11:33:56+00
-71.205509,42.322381,619085,place-newtn,,Newton Highlands,green,,,,42.322381,-71.205509,,"60 Station Avenue, Newton, MA 02461",https://www.mbta.com/stops/place-newtn,,1,,1,Newton,,,,,,,,,,,,DOT_ADMIN,2021/12/07 11:33:56+00,DOT_ADMIN,2021/12/07 11:33:56+00
-71.192414,42.329443,619093,place-newto,,Newton Centre,green,,,,42.329443,-71.192414,,"72 Union Street, Newton, MA 02459",https://www.mbta.com/stops/place-newto,,1,,1,Newton,,,,,,,,,,,,DOT_ADMIN,2021/12/07 11:33:56+00,DOT_ADMIN,2021/12/07 11:33:56+00
-71.06129,42.365577,619102,place-north,,North Station,green,,,,42.365577,-71.06129,CR-zone-1A,"135 Causeway St, Boston MA 02114",https://www.mbta.com/stops/place-north,,1,,1,Boston,,,,,,,,,,,,DOT_ADMIN,2021/12/07 11:33:56+00,DOT_ADMIN,2021/12/07 11:33:56+00
-71.029583,42.275275,619125,place-nqncy,,North Quincy,red,,,,42.275275,-71.029583,,"Hancock St and Hunt St, Quincy, MA 02171",https://www.mbta.com/stops/place-nqncy,,1,,1,Quincy,,,,,,,,,,,,DOT_ADMIN,2021/12/07 11:33:56+00,DOT_ADMIN,2021/12/07 11:33:56+00
,,,,,,,,,,,,,,,,,,,,,,,,,,,,,,,,,,
-71.088806,42.340401,619135,place-nuniv,,Northeastern University,green,,,,42.340401,-71.088806,,"Huntington Ave and Opera Pl, Boston, MA 02115",https://www.mbta.com/stops/place-nuniv,,1,,1,Boston,,,,,,,,,,,,DOT_ADMIN,2021/12/07 11:33:56+00,DOT_ADMIN,2021/12/07 11:33:56+00
-71.071097,42.43668,619138,place-ogmnl,,Oak Grove,orange,,,,42.43668,-71.071097,,"Washington St at Winter St, Malden, MA 02148",https://www.mbta.com/stops/place-ogmnl,,1,,1,Malden,,,,,,,,,,,,DOT_ADMIN,2021/12/07 11:33:56+00,DOT_ADMIN,2021/12/07 11:33:56+00
-71.004736,42.386867,619147,place-orhte,,Orient Heights,blue,,,,42.386867,-71.004736,,"1000 Bennington St, East Boston, MA 02128",https://www.mbta.com/stops/place-orhte,,1,,1,Boston,,,,,,,,,,,,DOT_ADMIN,2021/12/07 11:33:56+00,DOT_ADMIN,2021/12/07 11:33:56+00
-71.062424,42.356395,619155,place-pktrm,,Park Street,red,,,,42.356395,-71.062424,,"Tremont St and Winter St, Boston, MA 02108",https://www.mbta.com/stops/place-pktrm,,1,,1,Boston,,,,,,,,,,,,DOT_ADMIN,2021/12/07 11:33:56+00,DOT_ADMIN,2021/12/07 11:33:56+00
-71.119149,42.3884,619173,place-portr,,Porter,red,,,,42.3884,-71.119149,CR-zone-1A,"1899 Massachusetts Ave, Cambridge, MA 02140",https://www.mbta.com/stops/place-portr,,1,,1,Cambridge,,,,,,,,,,,,DOT_ADMIN,2021/12/07 11:33:56+00,DOT_ADMIN,2021/12/07 11:33:56+00
-71.081696,42.34557,619184,place-prmnl,,Prudential,green,,,,42.34557,-71.081696,,"Huntington Ave and Belvidere St, Boston, MA 02199",https://www.mbta.com/stops/place-prmnl,,1,,1,Boston,,,,,,,,,,,,DOT_ADMIN,2021/12/07 11:33:56+00,DOT_ADMIN,2021/12/07 11:33:56+00
-71.007153,42.233391,619189,place-qamnl,,Quincy Adams,red,,,,42.233391,-71.007153,,"Burgin Pkwy and Centre St, Quincy, MA 02169",https://www.mbta.com/stops/place-qamnl,,1,,1,Quincy,,,,,,,,,,,,DOT_ADMIN,2021/12/07 11:33:56+00,DOT_ADMIN,2021/12/07 11:33:56+00
-71.005409,42.251809,619195,place-qnctr,,Quincy Center,red,,,,42.251809,-71.005409,CR-zone-1,"175 Thomas E Burgin Pkwy, Quincy, MA 02169",https://www.mbta.com/stops/place-qnctr,,1,,1,Quincy,,,,,,,,,,,,DOT_ADMIN,2021/12/07 11:33:56+00,DOT_ADMIN,2021/12/07 11:33:56+00
-70.992533,42.407843,619207,place-rbmnl,,Revere Beach,blue,,,,42.407843,-70.992533,,"220 Shirley Ave, Revere, MA",https://www.mbta.com/stops/place-rbmnl,,1,,1,Revere,,,,,,,,,,,,DOT_ADMIN,2021/12/07 11:33:56+00,DOT_ADMIN,2021/12/07 11:33:56+00
-71.095451,42.331397,619214,place-rcmnl,,Roxbury Crossing,orange,,,,42.331397,-71.095451,,"1400 Tremont St, Roxbury, MA",https://www.mbta.com/stops/place-rcmnl,,1,,1,Boston,,,,,,,,,,,,DOT_ADMIN,2021/12/07 11:33:56+00,DOT_ADMIN,2021/12/07 11:33:56+00
-71.252685,42.337352,619218,place-river,,Riverside,green,,,,42.337352,-71.252685,,"367 Grove St, Newton, MA 02466",https://www.mbta.com/stops/place-river,,1,,1,Newton,,,,,,,,,,,,DOT_ADMIN,2021/12/07 11:33:56+00,DOT_ADMIN,2021/12/07 11:33:56+00
-71.148758,42.335088,619225,place-rsmnl,,Reservoir,green,,,,42.335088,-71.148758,,"401 Chestnut Hill Ave, Brookline, MA 02445",https://www.mbta.com/stops/place-rsmnl,,1,,1,Brookline,,,,,,,,,,,,DOT_ADMIN,2021/12/07 11:33:56+00,DOT_ADMIN,2021/12/07 11:33:56+00
-71.088961,42.336377,619233,place-rugg,,Ruggles,orange,,,,42.336377,-71.088961,CR-zone-1A,"1150 Tremont St, Roxbury, MA 02120",https://www.mbta.com/stops/place-rugg,,1,,1,Boston,,,,,,,,,,,,DOT_ADMIN,2021/12/07 11:33:56+00,DOT_ADMIN,2021/12/07 11:33:56+00
-71.111931,42.331684,619249,place-rvrwy,,Riverway,green,,,,42.331684,-71.111931,,"S Huntington Ave at Huntington Ave, Boston",https://www.mbta.com/stops/place-rvrwy,,1,,2,Boston,,,,,,,,,,,,DOT_ADMIN,2021/12/07 11:33:56+00,DOT_ADMIN,2021/12/07 11:33:56+00
-71.104248,42.317062,619252,place-sbmnl,,Stony Brook,orange,,,,42.317062,-71.104248,,"100 Boylston St, Jamaica Plain, MA",https://www.mbta.com/stops/place-sbmnl,,1,,1,Boston,,,,,,,,,,,,DOT_ADMIN,2021/12/07 11:33:56+00,DOT_ADMIN,2021/12/07 11:33:56+00
-70.997123,42.390501,619256,place-sdmnl,,Suffolk Downs,blue,,,,42.390501,-70.997123,,"1230 Bennington St, East Boston, MA 02128",https://www.mbta.com/stops/place-sdmnl,,1,,1,Boston,,,,,,,,,,,,DOT_ADMIN,2021/12/07 11:33:56+00,DOT_ADMIN,2021/12/07 11:33:56+00
-71.053331,42.31129,619261,place-shmnl,,Savin Hill,red,,,,42.31129,-71.053331,,"125 Savin Hill Ave, Dorchester, MA 02124",https://www.mbta.com/stops/place-shmnl,,1,,1,Boston,,,,,,,,,,,,DOT_ADMIN,2021/12/07 11:33:56+00,DOT_ADMIN,2021/12/07 11:33:56+00
-71.107353,42.345974,619266,place-smary,,Saint Mary's Street,green,,,,42.345974,-71.107353,,"Beacon St and Saint Mary's St, Boston, MA",https://www.mbta.com/stops/place-smary,,1,,1,Brookline,,,,,,,,,,,,DOT_ADMIN,2021/12/07 11:33:56+00,DOT_ADMIN,2021/12/07 11:33:56+00
-71.065738,42.293126,619269,place-smmnl,,Shawmut,red,,,,42.293126,-71.065738,,"Dayton St and Clementine Park, Dorchester, MA 02124",https://www.mbta.com/stops/place-smmnl,,1,,1,Boston,,,,,,,,,,,,DOT_ADMIN,2021/12/07 11:33:56+00,DOT_ADMIN,2021/12/07 11:33:56+00
-71.157661,42.3396,619273,place-sougr,,South Street,green,,,,42.3396,-71.157661,,,https://www.mbta.com/stops/place-sougr,,1,,2,Boston,,,,,,,,,,,,DOT_ADMIN,2021/12/07 11:33:56+00,DOT_ADMIN,2021/12/07 11:33:56+00
-71.067666,42.366664,619276,place-spmnl,,Science Park/West End,green,,,,42.366664,-71.067666,,"Leverett Circle and Nashua St, Boston, MA 02114",https://www.mbta.com/stops/place-spmnl,,1,,1,Boston,,,,,,,,,,,,DOT_ADMIN,2021/12/07 11:33:56+00,DOT_ADMIN,2021/12/07 11:33:56+00
-71.055242,42.352271,619283,place-sstat,,South Station,red,,,,42.352271,-71.055242,CR-zone-1A,"700 Atlantic Ave, Boston, MA 02110",https://www.mbta.com/stops/place-sstat,,1,,1,Boston,,,,,,,,,,,,DOT_ADMIN,2021/12/07 11:33:56+00,DOT_ADMIN,2021/12/07 11:33:56+00
-71.057598,42.358978,619312,place-state,,State,orange,,,,42.358978,-71.057598,,"200 Washington St, Boston, MA",https://www.mbta.com/stops/place-state,,1,,1,Boston,,,,,,,,,,,,DOT_ADMIN,2021/12/07 11:33:56+00,DOT_ADMIN,2021/12/07 11:33:56+00
-71.146202,42.341614,619323,place-sthld,,Sutherland Road,green,,,,42.341614,-71.146202,,"Commonwealth Ave and Sutherland Rd, Boston, MA",https://www.mbta.com/stops/place-sthld,,1,,2,Boston,,,,,,,,,,,,DOT_ADMIN,2021/12/07 11:33:56+00,DOT_ADMIN,2021/12/07 11:33:56+00
-71.116997,42.343327,619326,place-stpul,,Saint Paul Street,green,,,,42.343327,-71.116997,,"Beacon St and Saint Paul St, Brookline, MA 02446",https://www.mbta.com/stops/place-stpul,,1,,2,Brookline,,,,,,,,,,,,DOT_ADMIN,2021/12/07 11:33:56+00,DOT_ADMIN,2021/12/07 11:33:56+00
-71.076994,42.383975,619329,place-sull,,Sullivan Square,orange,,,,42.383975,-71.076994,,"Maffa Way and Cambridge St, Charlestown, MA 02129",https://www.mbta.com/stops/place-sull,,1,,1,Boston,,,,,,,,,,,,DOT_ADMIN,2021/12/07 11:33:56+00,DOT_ADMIN,2021/12/07 11:33:56+00
-71.12561,42.34111,619347,place-sumav,,Summit Avenue,green,,,,42.34111,-71.12561,,"Beacon St and Summit Ave, Brookline, MA",https://www.mbta.com/stops/place-sumav,,1,,2,Brookline,,,,,,,,,,,,DOT_ADMIN,2021/12/07 11:33:56+00,DOT_ADMIN,2021/12/07 11:33:56+00
-71.085056,42.342687,619350,place-symcl,,Symphony,green,,,,42.342687,-71.085056,,"Massachusetts Ave and Huntington Ave, Boston, MA",https://www.mbta.com/stops/place-symcl,,1,,2,Boston,,,,,,,,,,,,DOT_ADMIN,2021/12/07 11:33:56+00,DOT_ADMIN,2021/12/07 11:33:56+00
-71.138702,42.338459,619359,place-tapst,,Tappan Street,green,,,,42.338459,-71.138702,,"Beacon St and Tappan St, Brookline, MA",https://www.mbta.com/stops/place-tapst,,1,,2,Brookline,,,,,,,,,,,,DOT_ADMIN,2021/12/07 11:33:56+00,DOT_ADMIN,2021/12/07 11:33:56+00
-71.063917,42.349662,619362,place-tumnl,,Tufts Medical Center,orange,,,,42.349662,-71.063917,,"750 Washington St, Boston, MA",https://www.mbta.com/stops/place-tumnl,,1,,1,Boston,,,,,,,,,,,,DOT_ADMIN,2021/12/07 11:33:56+00,DOT_ADMIN,2021/12/07 11:33:56+00
-71.081343,42.268347,619367,place-valrd,,Valley Road,red,,,,42.268347,-71.081343,,"291 Valley Rd, Milton, MA 02186",https://www.mbta.com/stops/place-valrd,,1,,2,Milton,,,,,,,,,,,,DOT_ADMIN,2021/12/07 11:33:56+00,DOT_ADMIN,2021/12/07 11:33:56+00
-71.230609,42.325845,619371,place-waban,,Waban,green,,,,42.325845,-71.230609,,"Beacon St and Waban Sq, Newton, MA 02468",https://www.mbta.com/stops/place-waban,,1,,2,Newton,,,,,,,,,,,,DOT_ADMIN,2021/12/07 11:33:56+00,DOT_ADMIN,2021/12/07 11:33:56+00
-71.142853,42.343864,619378,place-wascm,,Washington Street,green,,,,42.343864,-71.142853,,"Commonwealth Ave and Washington St, Boston, MA",https://www.mbta.com/stops/place-wascm,,1,,1,Boston,,,,,,,,,,,,DOT_ADMIN,2021/12/07 11:33:56+00,DOT_ADMIN,2021/12/07 11:33:56+00
-71.077082,42.40237,619381,place-welln,,Wellington,orange,,,,42.40237,-71.077082,,"Revere Beach Pkwy and Rivers Edge Dr, Medford, MA 02155",https://www.mbta.com/stops/place-welln,,1,,1,Medford,,,,,,,,,,,,DOT_ADMIN,2021/12/07 11:33:56+00,DOT_ADMIN,2021/12/07 11:33:56+00
-71.022865,42.37964,619387,place-wimnl,,Wood Island,blue,,,,42.37964,-71.022865,,"450 Bennington St, East Boston, MA",https://www.mbta.com/stops/place-wimnl,,1,,1,Boston,,,,,,,,,,,,DOT_ADMIN,2021/12/07 11:33:56+00,DOT_ADMIN,2021/12/07 11:33:56+00
-71.020337,42.266514,619393,place-wlsta,,Wollaston,red,,,,42.266514,-71.020337,,"90 Woodbine St, Quincy, MA 02171",https://www.mbta.com/stops/place-wlsta,,1,,1,Quincy,,,,,,,,,,,,DOT_ADMIN,2021/12/07 11:33:56+00,DOT_ADMIN,2021/12/07 11:33:56+00
-70.991648,42.41342,619400,place-wondl,,Wonderland,blue,,,,42.41342,-70.991648,,"1300 North Shore Rd, Revere, MA 02151",https://www.mbta.com/stops/place-wondl,,1,,1,Revere,,,,,,,,,,,,DOT_ADMIN,2021/12/07 11:33:56+00,DOT_ADMIN,2021/12/07 11:33:56+00
-71.243362,42.332902,619409,place-woodl,,Woodland,green,,,,42.332902,-71.243362,,"1940 Washington St, Newton, MA 02466",https://www.mbta.com/stops/place-woodl,,1,,1,Newton,,,,,,,,,,,,DOT_ADMIN,2021/12/07 11:33:56+00,DOT_ADMIN,2021/12/07 11:33:56+00
-71.140457,42.348343,619414,place-wrnst,,Warren Street,green,,,,42.348343,-71.140457,,"Commonwealth Ave and Warren St, Boston, MA",https://www.mbta.com/stops/place-wrnst,,1,,2,Boston,,,,,,,,,,,,DOT_ADMIN,2021/12/07 11:33:56+00,DOT_ADMIN,2021/12/07 11:33:56+00
